tiporesiduo,bairro,regiao,endereco,complemento,observacao,lat,lon
Materiais Recicláveis,São José,Centro,Avenida Sul,s/n,Cooperativa,-8.075631,-34.891624
Materiais Recicláveis,Dois Unidos,Norte,Av. Chagas Ferreira,601,Cooperativa,-8.005045,-34.912247
Materiais Recicláveis,Torre,Oeste,Rua Eliezer Olímpio de Moura,100,Cooperativa,-8.0444575,-34.9129944
Materiais Recicláveis,São José,Centro,Travessa do Gusmão,178,Cooperativa,-8.071821,-34.886728
Materiais Recicláveis,Guabiraba,Noroeste,Av. Padre Mosca de Carvalho,s/n,Cooperativa,-8.0625,-34.93253
Materiais Recicláveis,Arruda,Norte,Avenida Professor José dos Anjos,s/n,Cooperativa,-8.020267,-34.874597
Materiais Recicláveis,São José,Centro,Rua Pacatuba,s/n,Cooperativa,-8.076567,-34.897539
Materiais Recicláveis,São José,Centro,Rua Oscar de Melo,s/n,Cooperativa,-8.077965,-34.899157
Materiais Recicláveis,Imbiribeira,Sul,R. Antônio Cardoso da Fonte,483,Cooperativa,-8.097676,-34.919589
Materiais Recicláveis,Ibura,Sul,Rua Rio Uma,150,Cooperativa,-8.114698,-34.931643
"Materiais Recicláveis, Resíduos da Construção, Móveis e Eletrodomésticos",Arruda,Norte,Av. Prof. José dos Anjos,,Ecoestação Arruda,-8.0277576,-34.8924758
"Materiais Recicláveis, Resíduos da Construção, Móveis e Eletrodomésticos",Campo Grande,Norte,Av. Agamenon Magalhães com Rua Odorico Mendes,,Ecoestação Campo Grande,-8.039289,-34.878378
"Materiais Recicláveis, Resíduos da Construção, Móveis e Eletrodomésticos",Cohab,Sul,Av. Rio Largo com Avenida Santos,,Ecoestação Cohab,-8.115278,-34.953455
"Materiais Recicláveis, Resíduos da Construção, Móveis e Eletrodomésticos",Ibura,Sul,Rua Rio Tapado,,Ecoestação Ibura,-8.116757,-34.943218
"Materiais Recicláveis, Resíduos da Construção, Móveis e Eletrodomésticos",Imbiribeira,Sul,Av. Mascarenhas de Morais,,Ecoestação Imbiribeira,-8.123213,-34.914702
"Materiais Recicláveis, Resíduos da Construção, Móveis e Eletrodomésticos",Torre,Oeste,Rua Ciclovia República da Argélia,,Ecoestação Torre,-8.044172,-34.916232
"Materiais Recicláveis, Resíduos da Construção, Móveis e Eletrodomésticos",Torrões,Oeste,Rua Maestro Jones Johnsson,,Ecoestação Torrões,-8.057741,-34.935627
"Materiais Recicláveis, Resíduos da Construção, Móveis e Eletrodomésticos",Totó,Sudoeste,Rua Onze de Agosto,,Ecoestação Totó,-8.077674,-34.971714
Materiais Recicláveis,Santo Amaro,Centro,R. da Aurora,s/n,PEV,-8.054841,-34.876912
Materiais Recicláveis,Recife,Centro,Av. Rio Branco,261,PEV,-8.062349,-34.873686
Materiais Recicláveis,Recife,Centro,Av. Alfredo Lisboa,11,PEV,-8.063356,-34.871452
Materiais Recicláveis,Santo Antônio,Centro,Praça da Independência ,,PEV,-8.064063,-3.487838
Materiais Recicláveis,Santo Antônio,Centro,R. Princesa Isabel,405,PEV,-8.058049,-34.882241
Materiais Recicláveis,Ilha do Leite,Centro,Praça Miguel de Cervantes,,PEV,-8.066343,-34.893374
Materiais Recicláveis,Boa Vista,Centro,Av. Lins Petit,3,PEV,-8.060482,-34.894897
Materiais Recicláveis,Recife,Centro,Cais do Apolo,905,PEV,-8.054718,-34.872298
Materiais Recicláveis,Boa Vista,Centro,Av. da Saudade,28,PEV,-8.050546,-34.883392
Materiais Recicláveis,Boa Vista,Centro,Praça Parque Amorim ,,PEV,-8.051907,-34.895045
Materiais Recicláveis,Recife,Centro,Praça do Arsenal da Marinha,35 Sala 803,PEV,-8.061433,-34.871067
Materiais Recicláveis,Recife,Centro,Av. Rio Branco,155 A,PEV,-8.062639,-34.872884
Materiais Recicláveis,Soledade,Centro,R. João Fernandes Viêira,160,PEV,-8.054543,-3.489133
Materiais Recicláveis,Hipódromo,Norte,R. Carlos Fernandes,264,PEV,-8.032606,-34.886425
Materiais Recicláveis,Santo Amaro,Centro,Av. Gov. Agamenon Magalhães,1956,PEV,-8.039209,-34.878273
Materiais Recicláveis,Peixinhos,Norte,Av. Prof. José dos Anjos,36,PEV,-8.020321,-34.874485
Materiais Recicláveis,Encruzilhada,Norte,R. Amaro Coutinho,675,PEV,-8.032911,-34.896082
Materiais Recicláveis,Casa Forte,Noroeste,Av. Dezessete de Agosto,1386,PEV,-8.035757,-34.920196
Materiais Recicláveis,Monteiro,Noroeste,Av. Dezessete de Agosto,2702,PEV,-8.027942,-3.492823
Materiais Recicláveis,Poço da Panela,Noroeste,Estr. Real do Poço,494,PEV,-8.036449,-34.924747
Materiais Recicláveis,Morro da Conceição,Noroeste,"Estrada do Morro da Conceição,",442,PEV,-8.019322,-34.914722
Materiais Recicláveis,Graças,Noroeste,Av. Rui Barbosa,1899,PEV,-8.037776,-34.905772
Materiais Recicláveis,Parnamirim,Noroeste,Av. Dezessete de Agosto,177,PEV,-8.03418,-34.911283
Materiais Recicláveis,Jaqueira,Noroeste,R. do Futuro,1100,PEV,-8.036243,-34.903834
Materiais Recicláveis,Graças,Noroeste,Rua Senador Alberto Paiva,71-115,PEV,-8.043843,-34.901419
Materiais Recicláveis,Jaqueira,Noroeste,Rua Hoel Sette,109,PEV,-8.036238,-34.902906
Materiais Recicláveis,Cordeiro,Oeste,Praça do Arraial Novo do Bom Jesus ,,PEV,-8.057104,-34.930558
Materiais Recicláveis,Torrões,Oeste,R. Tumiritinga,115,PEV,-8.057688,-34.935291
Materiais Recicláveis,Iputinga,Oeste,R. Ciclovia República da Argélia,10,PEV,-8.044144,-34.916223
Materiais Recicláveis,Iputinga,Oeste,Praça Bom Pastor,1308,PEV,-8.048485,-34.940198
Materiais Recicláveis,Engenho do Meio,Oeste,R. Antônio Curado,352-428,PEV,-8.057298,-34.942138
Materiais Recicláveis,Ilha do Retiro,Oeste,Av. Sport Clube do Recife,830,PEV,-8.061184,-34.902856
Materiais Recicláveis,Madalena,Oeste,Av. Beira Rio,1008,PEV,-8.046852,-34.904118
Materiais Recicláveis,Madalena,Oeste,R. Castro Leão,299,PEV,-8.054359,-34.908995
Materiais Recicláveis,Torre,Oeste,Praça Professor Barreto Campelo,1183,PEV,-8.047049,-34.913819
Materiais Recicláveis,Várzea,Oeste,Estação Riacho Cavouco,,PEV,-8.03667,-34.94587
Materiais Recicláveis,Iputinga,Oeste,R. São Mateus,6,PEV,-8.029139,-34.934141
Materiais Recicláveis,Jiquiá,Sudoeste,Av. Gen. San Martin,1862,PEV,-8.066807,-34.927582
Materiais Recicláveis,Curado,Sudoeste,R. Nelsom de Sena,5,PEV,-8.077634,-34.971882
Materiais Recicláveis,Tejipió,Sudoeste,Av. Liberdade,65,PEV,-8.082147,-34.960266
Materiais Recicláveis,Barro,Sudoeste,R. Cap. Ponciano,201,PEV,-8.095263,-34.943601
Materiais Recicláveis,Areias,Sudoeste,R. Álvaro Fragoso,216,PEV,-8.09606,-34.931721
Materiais Recicláveis,Jardim São Paulo,Sudoeste,Av. Central,5916,PEV,-8.085763,-34.936725
Materiais Recicláveis,Imbiribeira,Sul,Av. Mascarenhas de Moraes,533,PEV,-8.087189,-34.907475
Materiais Recicláveis,Imbiribeira,Sul,R. Nova Verona,101,PEV,-8.096544,-34.91565
Materiais Recicláveis,Imbiribeira,Sul,Av. Pres. Dutra,50,PEV,-8.123409,-34.915241
Materiais Recicláveis,Imbiribeira,Sul,Av. Mascarenhas de Moraes,203,PEV,-8.134015,-34.916686
Materiais Recicláveis,Boa Viagem,Sul,Av. Boa Viagem,4862,PEV,-8.131883,-34.900145
Materiais Recicláveis,Boa Viagem,Sul,First Garden of Boa Viagem - Av. Boa Viagem,1156-1220,PEV,-8.10147,-34.885324
Materiais Recicláveis,Boa Viagem,Sul,R. Barão de Souza Leão,131,PEV,-8.13215,-34.901202
Materiais Recicláveis,Boa Viagem,Sul,Av. Boa Viagem,3196,PEV,-8.105139,-34.887018
Materiais Recicláveis,Imbiribeira,Sul,R. Quatorze,216,PEV,-8.099578,-34.908741
Materiais Recicláveis,Pina,Sul,Av. Antônio de Goes,1050,PEV,-8.084317,-34.887553
Materiais Recicláveis,Cohab,Sul,Av. Santos,15,PEV,-8.115285,-34.95355
Materiais Recicláveis,Ibura,Sul,R. Rio Tapado,39,PEV,-8.116771,-34.943378
"metal,isopor,papel,plastico,vidro",Recife,Centro,Av. Cais do Apolo,Prefeitura do Recife (área interna ),Prefeitura do Recife,-8.054732,-34.872078
"metal,isopor,papel,plastico,vidro",Recife,Centro,Rua do Bom Jesus,Em frente ao Museu Arq. e Pça do Arsenal,Ecoponto,-8.061468,-34.871037
"metal,isopor,papel,plastico,vidro",Recife,Centro,Av. Marques de Olinda,Calçada da cimento nassau( em frete ao marco zero),Ecoponto,-8.063282,-34.871568
"metal,isopor,papel,plastico,vidro",Recife,Centro,Av. Rio Branco,Calçada do Banco do Brasil,Ecoponto,-8.062334,-34.873668
"metal,isopor,papel,plastico,vidro",Santo Antônio,Centro,Avenida Dantas Barreto,Calçada da Praça da Independência,Ecoponto,-8.064094,-34.878483
"metal,isopor,papel,plastico,vidro",São José,Centro,Rua Floriano Peixoto,Dentro da Estação de Metrô,Ecoponto,-8.068556,-34.88447
"metal,isopor,papel,plastico,vidro",Santo Antônio,Centro,Rua da Aurora,"Calçada em frente à quadra, lado oposto",Ecoponto,-8.054618,-34.876745
"metal,isopor,papel,pastico,vidro",Santo Amaro,Centro,Rua Princesa Isabel,Calçada do Parque 13 de Maio,Ecoponto,-8.058044,-34.882159
"metal,isopor,papel,plastico,vidro",Ilha do Leite,Centro,Praça Miguel Cervantes,Primeira Ilha,Ecoponto,-8.065414,-34.893205
"metal,isopor,papel,pastico,vidro",Paissandu,Centro,Avenida Lins Petit - Praça Chora Menino,Em frente da Praça Chora Menino,Ecoponto,-8.060445,-34.894878
"metal,isopor,papel,plastico,vidro",Derby,Noroeste,Av. Agamenon Magalhães,Praça do Derby,Ecoponto,-8.056318,-34.898245
"metal,isopor,papel,plastico,vidro",Santo Amaro,Centro,Av. Gov. Agamenon Magalhães,Praça do Parque Amorim,Ecoponto,-8.051932,-34.89503
"metal,isopor,papel,plastico,vidro",Hipódromo,Norte,Rua Carlos Fernandes,Na Praça do Hipódromo,Ecoponto,-8.032588,-34.886414
"metal,isopor,papel,plastico,vidro",Rosarinho,Norte,Av. Santos Dumont,Praça do Rosarinho,Ecoponto,-8.032848,-34.89619
"metal,isopor,papel,plastico,vidro",Campo Grande,Norte,Av. Professor José dos Anjos,EcoEstação Arruda : Em frente da ponte do Rio Beberibe,Ecoponto,-8.020431,-34.87449
"metal,isopor,papel,plastico,vidro",Graças,Noroeste,Rua Alberto Paiva,em frente ao Colégio São Luis,Ecoponto,-8.04383,-34.901421
"metal,isopor,papel,plastico,vidro",Parnamirim,Noroeste,Av. 17 de Agosto,Praça Dr. José Vilela,Ecoponto,-8.034167,-34.91129
"metal,isopor,papel,plastico,vidro",Santana,Noroeste,Rua Samuel Farias,"Pça Comp. Antonio Maria, em frente ao Colégio Expoente",Ecoponto,-8.040656,-34.914137
"metal,isopor,papel,plastico,vidro",Morro da Conceição,Noroeste,Rua Morro da Conceição,Praça do Morro da Conceição,Ecoponto,-8.019382,-34.914654
"metal,isopor,papel,plastico,vidro",Monteiro,Noroeste,Av.17 de Agosto,Pça em frente ao Colégio Silva Jardim,Ecoponto,-8.027919,-34.928247
"metal,isopor,papel,plastico,vidro",Jaqueira,Noroeste,Rua Rui Barbosa,"Cais da Jaqueira,lateral do Parque da Jaqueira",Ecoponto,-8.037156,-34.90612
"metal,isopor,papel,plastico,vidro",Poço,Noroeste,Rua do Futuro,"Praça Souto Filho,Jaqueira.",Ecoponto,-8.036269,-34.902888
"metal,isopor,papel,plastico,vidro",Poço,Noroeste,Estrada. Real do Poço.,Praça Rui Antunes,Ecoponto,-8.036879,-34.924999
"metal,isopor,papel,plastico,vidro",Macaxeira,Noroeste,"Av. Norte, Academia da Cidade do Buriti",em frente da Academia da Cidade do Burit,Ecoponto,-8.016896,-34.929414
"metal,isopor,papel,plastico,vidro",Santana,Noroeste,R. Jorge Gomes de Sá (Parque de Santana),em frente do Parque de Santana,Ecoponto,-8.041134,-34.917631
"metal,isopor,papel,plastico,vidro",Casa Amarela,Noroeste,Av. Norte.,"Praça do Trabalho,",Ecoponto,-8.023107,-34.914341
"metal,isopor,papel,plastico,vidro",Casa Amarela,Noroeste,Av.17 de Agosto,Praça da Vitória Régia,Ecoponto,-8.035752,-34.920197
"metal,isopor,papel,plastico,vidro",Ilha Joana Bezerra,Centro,Av. Beira Rio,Praça da Academia da Cidade,Ecoponto,-8.046621,-34.904167
"metal,isopor,papel,plastico,vidro",Madalena,Oeste,Rua José Múcio Monteiro,Estacionamento da FCAP-UPE,Ecoponto,-8.061194,-34.902833
"metal,isopor,papel,plastico,vidro",Torre,Oeste,Rua Prof. Barreto Campelo,Praça Prof. Barreto Campelo,Ecoponto,-8.047006,-34.913753
"metal,isopor,papel,plastico,vidro",Engenho do Meio,Oeste,Rua Antonio Curado,Praça da Academia da Cidade Arnaldo Assunção.,Ecoponto,-8.057281,-34.942328
"metal,isopor,papel,plastico,vidro",Iputinga,Oeste,Rua Bom Pastor,Praça do Bom Pastor,Ecoponto,-8.04891,-34.940114
"metal,isopor,papel,plastico,vidro",Torre,Oeste,Rua Real da Torre,Centro Educacional Paulo Freire da Prefeitura,Ecoponto,-8.045157,-34.910046
"metal,isopor,papel,plastico,vidro",San Martin,Sudoeste,Rua Dezesseis de Outubro ,Em frente do Parque Arraial Novo do Bom Jesus,Ecoponto,-8.058085,-34.931176
"metal,isopor,papel,plastico,vidro",San Martin,Sudoeste,Rua Elphego Jorge de Souza,ao lado do CHESF - Companhia Hidroelétrica do São Francisco,Ecoponto,-8.064149,-34.931022
"metal,isopor,papel,plastico,vidro",San Martin,Sudoeste,Av.General San Martin,Academia da Cidade de San Martin.,Ecoponto,-8.066808,-34.927572
"metal,isopor,papel,plastico,vidro",Imbiribeira,Sul,Avenida Mascarenhas de Moraes,em frente à COPERGÁS,Ecoponto,-8.087282,-34.907481
eletrônico,San Martin,Sudoeste,Rua Vinte e Um de Abril,3370 - EMPREL,EMPREL,-8.0676699,-34.938081
eletrônico,Boa Vista,Centro,Av. Conde da Boa Vista,867 - URB,URB,-8.0583029,-34.888518
"metal,isopor,papel,plastico,vidro",Boa Viagem,Sul,Rua Visc. de Jequitinhonha,2674,Ecoponto,-8.136264,-34.903703
eletrônico,Curado,Sudoeste,Rodovia BR 232,s/n,Jardim Botânico do Recife,-8.076071,-34.966706
eletrônico,Areias,Sudoeste,Av. Recife,3587 - Próximo ao Hospital Geral de Areias,EMLURB,-8.1020216,-34.927986
eletrônico,Beberibe,Norte,Rua Melânio de Barros Correia,26,ESCOLA PROFISSIONALIZANTE DE BEBERIBE ZULEIDE GOMES MONTEIRO,-8.0030577,-34.899059
eletrônico,Casa Amarela,Noroeste,Av. Norte Miguel Arraes,5600,ESCOLA PROFISSIONAL DOM BOSCO,-8.0215479,-34.916639
eletrônico,Totó,Sudoeste,Av 11 de Agosto,Bidu Krause,ESCOLA PROFISSIONAL ANEXA AO CSU BIDU KRAUSE,-8.0797775,-34.970345
pilhas e baterias,Casa Forte,Noroeste,Dr. João Santos Filho,255,Shopping Plaza no estacionamento do térreo,-8.036359,-34.913042
pilhas e baterias,Boa Viagem,Sul,Rua Padre Carapuceiro,777,Nagem Informática,-8.120844,-34.904384
pilhas e baterias,Casa Forte,Noroeste,Praça Jorn. Francisco P. Queiroz,310,Hiper Bompreço de Casa Forte,-8.037597,-34.91375
pilhas e baterias,Casa Amarela,Noroeste,Av. Norte Miguel Arraes de Alencar,6061,Deskontão Atacadista,-8.021132,-34.919673
pilhas e baterias,Iputinga,Oeste,Av. Prof. Moraes Rego,1235,Universidade Federal de Pernambuco - UFPE,-8.052328,-34.945095
"metal,isopor,papel,plastico,vidro",Imbiribeira,Sul,Rua Nova Verona,Praça da Academia da Cidade/Lagoa do Araçá,Ecoponto,-8.096588,-34.915461
"metal,isopor,papel,plastico,vidro",Boa Viagem,Sul,Av. Barão de Souza Leão,Posto Tiradentes/BR.,Ecoponto,-8.132921,-34.912598
"metal,isopor,papel,plastico,vidro",Boa Viagem,Sul,Rua Marques de Valença,Lateral da Igreja Matriz de Boa Viagem,Ecoponto,-8.131763,-34.900649
"metal,isopor,papel,plastico,vidro",Boa Viagem,Sul,Av. Boa Viagem,Parque Dona Lindú,Ecoponto,-8.140939,-34.903304
"metal,isopor,papel,plastico,vidro",Boa Viagem,Sul,Rua Dr. Nilo Dornelas Câmara,Praça de Boa Viagem (calçada voltada para  a praia),Ecoponto,-8.132314,-34.900105
"lixo organico, metralhas, móveis, materiais recicláveis, eletroeletronico, utensílios domésticos e resíduos de podas",Curado,Sudoeste,Rua Nelson de Sena,Em frente do : INST de Desenvol Econômico Social Produtivo,EcoEstação Totó,-8.077703,-34.971841
"metal,isopor,papel,plastico,vidro",Tejipió,Sudoeste,AV. Liberdade,Em frente do portão Cemitério Parque das Flores,Ecoponto,-8.082139,-34.960278
"metal,isopor,papel,plastico,vidro",Tejipió,Sudoeste,AV. Dr. José Rufino,Saída da Estação Tejipió,Ecoponto,-8.090814,-34.957087
"metal,isopor,papel,plastico,vidro",Barro,Sudoeste,Rua José Benedito Mouri Fernandes,Rua Cap. Ponciano,Ecoponto,-8.095265,-34.94353
"metal,isopor,papel,plastico,vidro",Areias,Sudoeste,Rua Ipojuca,Praça Heróis da Restauração,Ecoponto,-8.097034,-34.936117
"metal,isopor,papel,plastico,vidro",Jardim São Paulo,Sudoeste,Rua Nossa Senhora de Fatima,Praça de Jardim São Paulo,Ecoponto,-8.08196,-34.938121
"metal,isopor,papel,plastico,vidro",Cohab,Sul,Av. Rio Largo,Atras do E.M. Cristiano Cordeiro,EcoEstação,-8.116778,-34.943389
"metal,isopor,papel,plastico,vidro",Ibura,Sul,Rua Rio das Pedras,Tech Infor Informática,EcoEstação,-8.116722,-34.94328
"metal,isopor,papel,plastico,vidro",Caçote,Sudoeste,Av. Recife,em frente do EMLURB,Ecoponto,-8.102002,-34.92827
"metal,isopor,papel,plastico,vidro",Poço,Noroeste,Rua Eng. Oscár Ferreira,338,Amape-Associação Meio Ambiente Preservar e Educar,-8.029387,-34.922791
"metal,isopor,papel,plastico,vidro",Dois Unidos,Norte,Rua Mamede Coelho,53,Associação de trapeiros do Emaús,-8.005428,-34.903342
"metal,isopor,papel,plastico,vidro",Parnamirim,Noroeste,Rua Desembargador Góis Cavalcante,261,Pão de Açúcar do Parnamirim,-8.031581,-34.90845
eletrônico,Guabiraba,Noroeste,Av. da Recuperação,318,CRC Marista,-8.016326,-34.940215
Medicamentos,Torre,Oeste,Rua José Bonifácio,1315,Drogarias Carrefour,-8.040099,-34.909766
Óleos de Cozinha,Afogados,Sudoeste,Rua da Paz,82,ASA Portaria,-8.079229,-34.904414
Óleos de Cozinha,Afogados,Sudoeste,Rua São Miguel,250,Procuradoria Geral de Justiça,-8.066962,-34.885139
Óleos de Cozinha,Bomba do Hemetério,Norte,Rua Chã de Alegria,117,Escola Prof. Mardonio de Andrade Lima Coelho,-8.020803,-34.903803
eletrônico,Jaqueira,Noroeste,Rua do futuro,959,Econúcleo Jaqueira,-8.035791,-34.904969
eletrônico,Boa Vista,Centro,Av. Governador Carlos de Lima Cavalcanti,Ao lado do Posto Dom Bosco,Empresa de Manutenção e Limpeza Urbana,-8.056214,-34.895461
eletrônico,Água Fria,Norte,Av. Aníbal Benévolo,1552 - ao lado Centro Comunitária da Paz - COMPAZ- Alto Santa Terezinha,Compaz Alto Santa Terezinha,-8.010403,-34.903292
eletrônico,Jiquiá,Sudoeste,Av. General San Martin,Ao lado do Condomínio Morada Recife Antigo,Compaz San Martin,-8.060022,-34.926157
Óleos de Cozinha,Boa viagem,Sul,Rua Professor Eduardo Wanderley Filho,Ao lado do Condomínio  Ed. Sky Boa Viagem,colegio boa viagem,-8.110761,-34.894612
Óleos de Cozinha,Boa Viagem,Sul,Rua Padre Cabral,Em frente a loja Miss Meria,Colégio Madre de Deus,-8.133723,-34907142
Óleos de Cozinha,Santo Antônio,Centro,Rua Moacir Boracho,Ao lado da Secretaria da fazenda do estado de pernambuco,Tribunal de Justiça (Ed. Paula Batista),-8.062223,-34.876877
Óleos de Cozinha,Engenho do Meio,Oeste,Rua Bom Pastor,1406,Escola Municipal Engenho do Meio,-8.049916,-34.939615
Óleos de Cozinha,Espinheiro,Noroeste,Av. João de Barros,1545/1563,Colégio Saber Viver Espinheiro,-8.041006,-34.891821
Óleos de Cozinha,Graças,Noroeste,Av. Rui Barbosa,1680,Colégio Núcleo,-8.038775,-34.904595
Óleos de Cozinha,Ibura,Sul,Av. Ministro Oliveira Salazar,228,SESI Ibura,-8.109953,-34.937659
Óleos de Cozinha,Ibura,Sul,Av. Pernambuco,Em frete do NÚCLEO DE SEGURANÇA COMUNITÁRIA,Escola Maria Sampaio de Lucena,-8.121299,-34.94675
Óleos de Cozinha,Imbiribeira,Sul,Av. Marechal Mascarenhas de Morais,1919,Central de Juizados Especiais,-8.099596,-34.909465
Óleos de Cozinha,Imbiribeira,Sul,Rua Conego Lira,282,Escola Anita Garibalde,-8.095385,-34.912275
Óleos de Cozinha,Ipsep,Sul,Rua Saturnino Meireles,s/n,EREM Engenheiro Lauro Dinis,-8.114453,-34.921247
"lixo organico, metralhas, móveis, materiais recicláveis, eletroeletronico, utensílios domésticos e resíduos de podas",Ibura,Sul,Rua Rio Tapado,s/n,Ecoestação,-8.116730339,-34.9436
"lixo organico, metralhas, móveis, materiais recicláveis, eletroeletronico, utensílios domésticos e resíduos de podas",Cohab,Sul,Av. Santos,s/n,Ecoestação,-8.115148417,-34.9536
"lixo organico, metralhas, móveis, materiais recicláveis, eletroeletronico, utensílios domésticos e resíduos de podas",Totó,Sudoeste,Rua Onde de Agosto,s/n,Ecoestação,-8.077710064,-34.9718
"lixo organico, metralhas, móveis, materiais recicláveis, eletroeletronico, utensílios domésticos e resíduos de podas",Campo Grande,Norte,Avenida Agamenon Magalhães,Com a rua Odorico Mendes,Ecoestação,-8.039064362,-34.8784
"lixo organico, metralhas, móveis, materiais recicláveis, eletroeletronico, utensílios domésticos e resíduos de podas",Imbiribeira,Sul,Avenida Mascarenhas de Morais,"Sentido cidade/subúrbio, próximo ao viaduto Tancredo Neves",Ecoestação,-8.123083048,-34.9133
"lixo organico, metralhas, móveis, materiais recicláveis, eletroeletronico, utensílios domésticos e resíduos de podas",Arruda,Norte,Rua Professor José dos Anjos,(Ao lado do Habitacional Palha de Arroz,Ecoestação,-8.022630485,-34.88009465
"lixo organico, metralhas, móveis, materiais recicláveis, eletroeletronico, utensílios domésticos e resíduos de podas",Torrões,Oeste,Rua Maestro Jones Johnson,s/n,Ecoestação,-8.057749509,-34.93538838
"metal,isopor,papel,plastico,vidro",Madalena,Oeste,Rua Visconde de Albuquerque,Praça Eça de Queiroz,Ecoponto,-8.050744,-34.906654
"metal,isopor,papel,plastico,vidro",Madalena,Oeste,Avenida Abdias de Carvalho,Fcap,Ecoponto,-8.061185,-34.902842
Óleos de Cozinha,Aflitos,Noroeste,Av. Cons. Rosa Silva,SEMAS,,-8.0398523,-34.9015293
Óleos de Cozinha,Areias,Sudoeste,Av. Recife,3587 - EMLURB,,-8.1018629,-34.9304351
Óleos de Cozinha,Dois Irmãos,Noroeste,Praça Faria Neves,s/n - Compesa - Dois irmãos,,-8.015659,-34.9431149
Óleos de Cozinha,Jardim São Paulo,Sudoeste,Rua Capetinga,s/n - Escola Trajano de Mendoca,,-8.0785098,-34.9435062
Óleos de Cozinha,Recife Antigo,Centro,Av. Rio Branco,193 - EREM Porto Digital,,-8.0627359,-34.8755563
Óleos de Cozinha,Santo Amaro,Centro,Av. Cruz Cabugá,767 - Serviço Social da Indústria - Sesi,,-8.0479,-34.8798227
Óleos de Cozinha,Totó,Sudoeste,Rua Onze de Agosto,564 - Compesa,,-8.0784466,-34.97339
Óleos de Cozinha,Vasco da gama,Noroeste,Rua Vasco da Gama,145 - SESI Vasco da Gama,,-8.0192679,-34.9237825
"eletronico, metal,isopor,papel,plastico,vidro",Imbiribeira,Sul,Rua Antônio Cardoso da Fonte,483 - Pro-Recife,Cooperativa,-8.0977593,-34.921774
"eletronico, oleo de cozinha, metal,isopor,papel,plastico,vidro",Afogados,Sudoeste,Rua Oscár Melo,COOPAGRES,Cooperativa,-8.0977611,-34.9283407
"metal,isopor,papel,plastico,vidro",Arruda,Norte,Rua Farias Neves,982 - Palha de arroz,Cooperativa,-8.0203083,-34.8764555
"metal,isopor,papel,plastico,vidro",São José,Centro,Avenida Sul,s/n - Cooperativa Verde Nossa Vida,Cooperativa,-8.0754417,-34.8909016
"metal,isopor,papel,plastico,vidro",São José,Centro,Avenida Sul,s/n - Cooperativa Esperança Viva,Cooperativa,-8.0754159,-34.8910941
"metal,isopor,papel,plastico,vidro",Torre,Oeste,Rua Eliéser Olímpio de Moura,100 A - Cooperativa Recicla Torre,Cooperativa,-8.0445617,-34.9151526
"metal,isopor,papel,plastico,vidro",Dois Unidos,Norte,Av. Chagas Ferreira,601 - Cooperativa Resgatando Vidas,Cooperativa,-8.0050971,-34.9144973
Pneu,Madalena,Oeste,Av. Abdias de Carvalho,341 - Pneus Pirelle,,-8.0614164,-34.9087182
Pneu,Espinheiro,Noroeste,Av. Norte,2261 - Bridgestone Pneus,,-8.0392157,-34.893334
Pneu,São José,Centro,Rua Lourenço de Sá,165 - Pneu Verde,,-8.0743288,-34.8980205
Lampada,Imbiribeira,Sul,Rua Francisco Correa de Moraes,100 - Carrefour RBV Boa Viagem,,-8.1241489,-34.9132995
Eletroeletrônico,Jaqueira,Noroeste,R. Dep. Pedro Pires Ferreira ,,,-8.0378431,-34.9056631
Eletroeletrônico,Graças,Noroeste,Rua Gerásio Fioravante,209,,-8.0487205,-34.9032191
Eletroeletrônico,Recife,Centro,Rua Domingos José Martins,75,,-8.0617605,-34.8738724
Eletroeletrônico,Recife,Centro,Edifício Ministro Djaci Falcão,,,-8.0584761,-34.8752464
Eletroeletrônico,Boa Viagem,Sul,Rua Ernesto de Paula Santos,1172,,-8.1240023,-34.9083706
Eletroeletrônico,Derby,Noroeste,Rua Henrique Dias,609,,-8.0591777,-34.9013927
Eletroeletrônico,Casa Forte,Noroeste,Av. Dezessete de Agosto,2187,,-8.0311251,-34.927634
Eletroeletrônico,Ilha do Leite,Centro,Av. Gov. Agamenon Magalhães,4475,,-8.0639936,-34.899067
Eletroeletrônico,Espinheiro,Noroeste,Av. Gov. Agamenon Magalhães,2978,,-8.0480403,-34.8953919
Eletroeletrônico,Graças,Noroeste,Av. Rui Barbosa,1104,,-8.042781,-34.903612
Eletroeletrônico,Várzea,Oeste,Rua Ministro Mário Andreaza,s/n,,-8.0660793,-34.9879686
Eletroeletrônico,Casa Forte,Noroeste,Rua Dr. João Santos Filho,255,,-8.0371544,-34.9170377
Eletroeletrônico,Boa Viagem,Sul,Rua Belmonte,199,,-8.1333142,-34.9094507
Eletroeletrônico,Boa Viagem,Sul,Rua José Cardoso Aires,705,,-8.1415661,-34.9122182
Eletroeletrônico,Tamarineira,Noroeste,Rua Sebastião Alves,73,,-8.0316316,-34.9079425
Eletroeletrônico,Pina,Sul,Av. República do Líbano ,251,,-8.0370626,-34.9498685
Eletroeletrônico,Graças,Noroeste,Rua Antenor Navarro,81,,-8.0375974,-34.9044994
Eletroeletrônico,São José,Centro,R. Santa Rita,216,,-8.0705413,-34.8807705
Eletroeletrônico,Boa Viagem,Sul,R. Antônio Luís Soares,129,,-8.1405929,-34.9189458
Eletroeletrônico,Recife,Centro,Rua Bione,220 - Cais do Apolo,,-8.0582517,-34.8741831
Eletroeletrônico,Santo Antônio,Centro,Rua da Palma,333,,-8.0658663,-34.8830303
Eletroeletrônico,Boa Viagem,Sul,Shopping Recife,,,-8.1028259,-34.9113759
Eletroeletrônico,Casa Amarela,Noroeste,Rua Padre Lemos,203 Loja 203,,-8.0249844,-34.9203791
Eletroeletrônico,Peixinhos,Norte,Av. Presidente Kennedy,2114,,-8.0125706,-34.8751807
Eletroeletrônico,Santo Antônio,Centro,Rua da Palma,251 Loja,,-8.0650356,-34.8827766
Eletroeletrônico,Pina,Sul,Shopping Rio Mar,,,-8.0862866,-34.8960435
Eletroeletrônico,Casa Forte,Noroeste,Praça de Casa Forte,465,,-8.0347982,-34.9211014
Eletroeletrônico,Ilha do Retiro,Oeste,Rua Tabaiares,360,,-8.0650241,-34.9072055
Eletroeletrônico,Aflitos,Noroeste,Av. Rosa e Silva,1510,,-8.0381858,-34.9018883
Eletroeletrônico,Bongi,Sudoeste,Rua Dona Maria Augusta Nogueira,519,,-8.0651994,-34.9252734
Eletroeletrônico,Macaxeira,Noroeste,Av. Norte Miguel Arraes de Alencar,s/n,,-8.0145811,-34.9337005
Eletroeletrônico,Rosarinho,Norte,R. Regueira Costa,s/n,,-8.0336766,-34.900549
Eletroeletrônico,Pina,Sul,Av. Eng. Domingos Ferreira,2379,,-8.1113807,-34.8947131
Eletroeletrônico,Cidade Universitária,Oeste,Av. professor Luís Freire,500,,-8.0589441,-34.9514295
Eletroeletrônico,Boa Vista,Centro,R. João Fernandes Viêira,s/n,,-8.0534401,-34.8941205
Eletroeletrônico,Madalena,Oeste,R. Benfica,286,,-8.0590808,-34.9036982
Eletroeletrônico,Graças,Noroeste,R. do Futuro,514,,-8.0401792,-34.9026316
Eletroeletrônico,Aflitos,Noroeste,Av. Conselheiro Rosa e Silva,1339,,-8.0399506,-34.9015436
Eletroeletrônico,Zumbi,Oeste,R. Paraguassú,255,,-8.0496016,-34.9195291